ID,latitudine,longitudine,Indirizzo,TELEFONO,ISTITUTO COMPRENSIVO STATALE / SCUOLA PARITARIA,SEDE E CONTATTI SEGRETERIA
1,45.612646,9.199092,"Via Gaetana Agnesi, 10, Desio, 20832 MB",362624030,"ISTITUTO COMPRENSIVO AGNESI","Segreteria Via Agnesi, 10 - Tel. 0362/624.030 - Fax 0362/620.278 e-mail miic879004@istruzione.it - sito www.ic-agnesidesio.gov.it"
2,45.602003,9.1278203,"Via Armando Diaz, 7, Desio, 20832 MB",362303856,"ISTITUTO COMPRENSIVO AGNESI","Segreteria Via Agnesi, 10 - Tel. 0362/624.030 - Fax 0362/620.278 e-mail miic879004@istruzione.it - sito www.ic-agnesidesio.gov.it"
3,45.614108,9.211503,"Via Jacopo dal Verme, 20832 Desio MB",362627292,"ISTITUTO COMPRENSIVO PRATI c/o Scuola Rodari","Segreteria Piazza Nenni, 1 - Tel. 0362/392.316 - Fax 0362/303.076 e-mail info@icpratidesio.it - sito www.icpratidesio.it"
4,45.620961,9.230927,"Via Sant'Apollinare, 10, 20832 Desio MB",362621418,"ISTITUTO COMPRENSIVO PRATI c/o Scuola Rodari","Segreteria Piazza Nenni, 1 - Tel. 0362/392.316 - Fax 0362/303.076 e-mail info@icpratidesio.it - sito www.icpratidesio.it"
5,45.195245,9.795426,"Via Leone Tolstoi, 1, 20832 Desio MB",362626264,"ISTITUTO COMPRENSIVO TOLSTOJ","Segreteria Via Tolstoj, 1 - Tel. 0362/626.264 - Fax 0362/307.837 e-mail ictolstoj@scuoletolstoj.it - sito www.ictolstoj.gov.it"
6,45.620572,9.186417,"Via Dolomiti, 50, 20832 Desio MB",362621595,"ISTITUTO COMPRENSIVO TOLSTOJ","Segreteria Via Tolstoj, 1 - Tel. 0362/626.264 - Fax 0362/307.837 e-mail ictolstoj@scuoletolstoj.it - sito www.ictolstoj.gov.it"
7,45.618071,9.210893,"Via S. Pietro, 6, 20832 Desio MB",362621649,"Scuola primaria paritaria Collegio Paola di Rosa",SEGRETERIA e-mail paola.dirosa@infinito.it - sito www.ancelle.org/scuole/collegio.htm
