ID,latitudine,longitudine,Indirizzo,Telefono,E-mail,Sito,Nome,Note
1,45.612646,9.199092,"Via Gaetana Agnesi, 10, Desio, 20832 MB",362624030,miic879004@istruzione.it,http://www.ic-agnesidesio.gov.it,"ISTITUTO COMPRENSIVO AGNESI","Segreteria Via Agnesi, 10 - Tel. 0362/624.030 - Fax 0362/620.278"
2,45.6189477,9.201109,"Via Armando Diaz, 7, Desio, 20832 MB",362303856,miic879004@istruzione.it,http://www.ic-agnesidesio.gov.it,"ISTITUTO COMPRENSIVO AGNESI","Segreteria Via Agnesi, 10 - Tel. 0362/624.030 - Fax 0362/620.278"
3,45.614108,9.211503,"Via Jacopo dal Verme, 20832 Desio MB",362627292,info@icpratidesio.it,http://www.icpratidesio.it,"ISTITUTO COMPRENSIVO PRATI c/o Scuola Rodari","Segreteria Piazza Nenni, 1 - Tel. 0362/392.316 - Fax 0362/303.076"
4,45.620961,9.230927,"Via Sant'Apollinare, 10, 20832 Desio MB",362621418,info@icpratidesio.it,http://www.icpratidesio.it,"ISTITUTO COMPRENSIVO PRATI c/o Scuola Rodari","Segreteria Piazza Nenni, 1 - Tel. 0362/392.316 - Fax 0362/303.076"
5,45.6278697,9.2010009,"Via Leone Tolstoi, 1, 20832 Desio MB",362626264,ictolstoj@scuoletolstoj.it,http://www.ictolstoj.gov.it,"ISTITUTO COMPRENSIVO TOLSTOJ","Segreteria Via Tolstoj, 1 - Tel. 0362/626.264 - Fax 0362/307.837"
6,45.620572,9.186417,"Via Dolomiti, 50, 20832 Desio MB",362621595,ictolstoj@scuoletolstoj.it,http://www.ictolstoj.gov.it,"ISTITUTO COMPRENSIVO TOLSTOJ","Segreteria Via Tolstoj, 1 - Tel. 0362/626.264 - Fax 0362/307.837"
7,45.618071,9.210893,"Via S. Pietro, 6, 20832 Desio MB",362621649,paola.dirosa@infinito.it,http://www.ancelle.org/scuole/collegio.htm,"Scuola primaria paritaria Collegio Paola di Rosa",""
